name,address,latitude,longitude
NGO A,123 Main Street,40.7128,-74.0060
NGO B,456 Elm Street,34.0522,-118.2437
NGO C,789 Oak Street,41.8781,-87.6298
NGO D,101 Pine Street,37.7749,-122.4194
NGO E,202 Maple Street,51.5074,-0.1278
NGO F,303 Birch Street,48.8566,2.3522
NGO G,404 Cedar Street,35.6895,139.6917
NGO H,505 Walnut Street,52.5200,13.4050
NGO I,606 Pine Street,55.7558,37.6176
NGO J,707 Cherry Street,40.7128,-74.0060